date,placename,country,accommodation,latitude,longitude
16-04-2016,Madaba,Jordan,Moab Land Hotel,31.717635962553345,35.793712451675454
17-04-2016,Dana,Jordan,Feynan Ecolodge,30.61522140298003,35.44145818983463
18-04-2016,Petra,Jordan,Rocky Mountain Hotel,30.32161007670539,35.48318344379856
19-04-2016,Petra,Jordan,Rocky Mountain Hotel,30.32161007670539,35.48318344379856
20-04-2016,Wadi Rum,Jordan,Rum Stars Camp,29.504822299542003,35.46949540484463
21-04-2016,Aqaba,Jordan,Al Qidra Hotel & Suites,29.531749127528297,35.003393415058895
22-04-2016,Amman,Jordan,Jordan Tower Hotel,31.95178613675753,35.937461543806464
