date,placename,country,accommodation,latitude,longitude
2023-08-05,Shkoder,Albania,ODA Aparthotel,42.06706044146624,19.510754839230096
2023-08-06,Shala River,Albania,Livadhi Guesthouse,42.199954954719026,19.806393038324963
2023-08-07,Shala River,Albania,Livadhi Guesthouse,42.199954954719026,19.806393038324963
2023-08-08,Valbona,Albania,Lazer Cardaku,42.43781556166478,19.875509424531156
2023-08-09,Valbona,Albania,Lazer Cardaku,42.43781556166478,19.875509424531156
2023-08-10,Theth,Albania,Royal Land,42.40307431924233,19.765559603052502
2023-08-11,Shkoder,Albania,ODA Aparthotel,42.06706044146624,19.510754839230096
2023-08-12,Tirana,Albania,Destil B&B,41.32020451727337,19.81507842123784
